{"type": "FeatureCollection", "properties": {"route": "Ruta 6", "source": "rutastehuacan.th1.mx", "mid": "1QgwXatxHmb9urad33Rxkx7Gs-H0wsO8"}, "features": [{"type": "Feature", "properties": {"name": "Recorrido de la Ruta 6", "kind": "route_line"}, "geometry": {"type": "LineString", "coordinates": [[-97.4167064, 18.4491606], [-97.4130693, 18.4507177], [-97.4122217, 18.4506465], [-97.412093, 18.4468198], [-97.4091747, 18.446545], [-97.4096575, 18.448326], [-97.4092713, 18.4493336], [-97.4086812, 18.4493539], [-97.404969, 18.4441125], [-97.4041429, 18.4433899], [-97.4031344, 18.4427385], [-97.4029735, 18.4423823], [-97.4027589, 18.4413645], [-97.402319, 18.4405095], [-97.3997441, 18.4385859], [-97.3971155, 18.4444382], [-97.3948839, 18.4492929], [-97.394444, 18.4503004], [-97.3944226, 18.4515726], [-97.392105, 18.451577], [-97.391998, 18.452595], [-97.391569, 18.452595], [-97.3914829, 18.4561014], [-97.3915501, 18.4586688], [-97.3871484, 18.458493], [-97.3869982, 18.4647924], [-97.3990252, 18.4651384], [-97.4041107, 18.4652809], [-97.4041476, 18.4637186], [-97.4042395, 18.4622075], [-97.4022546, 18.4621058], [-97.4023619, 18.4600094], [-97.4094966, 18.4603656], [-97.4093357, 18.4644159], [-97.4176076, 18.4674281], [-97.4199036, 18.4682727], [-97.4250963, 18.4720277], [-97.4269953, 18.4734524], [-97.4281111, 18.4745514], [-97.4287656, 18.4741036], [-97.428669, 18.4737984], [-97.4270168, 18.4732081], [-97.4246135, 18.4714375], [-97.4211266, 18.466502], [-97.4178007, 18.4619837], [-97.4167922, 18.4605793], [-97.4184015, 18.4605691], [-97.4182406, 18.4597244], [-97.4180153, 18.4591952], [-97.4178222, 18.4582284], [-97.4175218, 18.4572209], [-97.4143568, 18.4571293], [-97.4107197, 18.4521324], [-97.4127367, 18.4521629], [-97.4126401, 18.4507686], [-97.4131444, 18.4508093], [-97.4185732, 18.4484482], [-97.4181118, 18.4474304], [-97.4180153, 18.4473795], [-97.4177451, 18.4474228], [-97.4173568, 18.4477103], [-97.41687, 18.4478782], [-97.4167869, 18.4479902], [-97.4170537, 18.4485169], [-97.4172615, 18.4488807], [-97.4168566, 18.449069]]}}, {"type": "Feature", "properties": {"name": "Papanachos de la Sarabia", "kind": "poi", "note": "business placemark from source map (advertiser pin), not a transit stop"}, "geometry": {"type": "Point", "coordinates": [-97.391345, 18.471962]}}, {"type": "Feature", "properties": {"name": "Tacos Genaro", "kind": "poi", "note": "business placemark from source map (advertiser pin), not a transit stop"}, "geometry": {"type": "Point", "coordinates": [-97.391263, 18.472906]}}, {"type": "Feature", "properties": {"name": "KAPRICH - Estilistas Tehuacán", "kind": "poi", "note": "business placemark from source map (advertiser pin), not a transit stop"}, "geometry": {"type": "Point", "coordinates": [-97.390578, 18.461257]}}, {"type": "Feature", "properties": {"name": "LA LAGUNILLA - Juguetería y Fantasía", "kind": "poi", "note": "business placemark from source map (advertiser pin), not a transit stop"}, "geometry": {"type": "Point", "coordinates": [-97.390832, 18.461532]}}, {"type": "Feature", "properties": {"name": "Tacos El PRIMO de Ruperto Amayo", "kind": "poi", "note": "business placemark from source map (advertiser pin), not a transit stop"}, "geometry": {"type": "Point", "coordinates": [-97.402009, 18.463071]}}, {"type": "Feature", "properties": {"name": "Freddy Producciones - Estudio Fotográfico", "kind": "poi", "note": "business placemark from source map (advertiser pin), not a transit stop"}, "geometry": {"type": "Point", "coordinates": [-97.391575, 18.472081]}}, {"type": "Feature", "properties": {"name": "La Incluyente: Cafetería y Panadería", "kind": "poi", "note": "business placemark from source map (advertiser pin), not a transit stop"}, "geometry": {"type": "Point", "coordinates": [-97.393805, 18.466897]}}, {"type": "Feature", "properties": {"name": "Florería Luna y Dulce", "kind": "poi", "note": "business placemark from source map (advertiser pin), not a transit stop"}, "geometry": {"type": "Point", "coordinates": [-97.391534, 18.47212]}}, {"type": "Feature", "properties": {"name": "Librería: Universo Mágico", "kind": "poi", "note": "business placemark from source map (advertiser pin), not a transit stop"}, "geometry": {"type": "Point", "coordinates": [-97.393922, 18.466842]}}]}